$GPRMC,163303.000,A,5569.2335,N,03762.7083,E,,,280808,,
$GPGGA,163303.000,5569.2335,N,03762.7083,E,1,12,1.0,137.88,M,0,M,0,0000
$GPGLL,5569.2335,N,03762.7083,E,163303.000,A
$GPRMC,163304.000,A,5569.2339,N,03762.7075,E,,,280808,,
$GPGGA,163304.000,5569.2339,N,03762.7075,E,1,12,1.0,137.90,M,0,M,0,0000
$GPGLL,5569.2339,N,03762.7075,E,163304.000,A
$GPRMC,163304.000,A,5569.2339,N,03762.7056,E,,,280808,,
$GPGGA,163304.000,5569.2339,N,03762.7056,E,1,12,1.0,137.92,M,0,M,0,0000
$GPGLL,5569.2339,N,03762.7056,E,163304.000,A
$GPRMC,163305.000,A,5569.2335,N,03762.7037,E,,,280808,,
$GPGGA,163305.000,5569.2335,N,03762.7037,E,1,12,1.0,137.95,M,0,M,0,0000
$GPGLL,5569.2335,N,03762.7037,E,163305.000,A
$GPRMC,163307.000,A,5569.2255,N,03762.6560,E,,,280808,,
$GPGGA,163307.000,5569.2255,N,03762.6560,E,1,12,1.0,137.96,M,0,M,0,0000
$GPGLL,5569.2255,N,03762.6560,E,163307.000,A
$GPRMC,163308.000,A,5569.2255,N,03762.6545,E,,,280808,,
$GPGGA,163308.000,5569.2255,N,03762.6545,E,1,12,1.0,137.98,M,0,M,0,0000
$GPGLL,5569.2255,N,03762.6545,E,163308.000,A
$GPRMC,163308.000,A,5569.2251,N,03762.6529,E,,,280808,,
$GPGGA,163308.000,5569.2251,N,03762.6529,E,1,12,1.0,138.00,M,0,M,0,0000
$GPGLL,5569.2251,N,03762.6529,E,163308.000,A
$GPRMC,163309.000,A,5569.2247,N,03762.6518,E,,,280808,,
$GPGGA,163309.000,5569.2247,N,03762.6518,E,1,12,1.0,138.01,M,0,M,0,0000
$GPGLL,5569.2247,N,03762.6518,E,163309.000,A
$GPRMC,163311.000,A,5569.2243,N,03762.6518,E,,,280808,,
$GPGGA,163311.000,5569.2243,N,03762.6518,E,1,12,1.0,138.01,M,0,M,0,0000
$GPGLL,5569.2243,N,03762.6518,E,163311.000,A
$GPRMC,163312.000,A,5569.2243,N,03762.6526,E,,,280808,,
$GPGGA,163312.000,5569.2243,N,03762.6526,E,1,12,1.0,138.00,M,0,M,0,0000
$GPGLL,5569.2243,N,03762.6526,E,163312.000,A
$GPRMC,163312.000,A,5569.2243,N,03762.6529,E,,,280808,,
$GPGGA,163312.000,5569.2243,N,03762.6529,E,1,12,1.0,137.99,M,0,M,0,0000
$GPGLL,5569.2243,N,03762.6529,E,163312.000,A
$GPRMC,163313.000,A,5569.2239,N,03762.6537,E,,,280808,,
$GPGGA,163313.000,5569.2239,N,03762.6537,E,1,12,1.0,137.98,M,0,M,0,0000
$GPGLL,5569.2239,N,03762.6537,E,163313.000,A
$GPRMC,163315.000,A,5569.2236,N,03762.6533,E,,,280808,,
$GPGGA,163315.000,5569.2236,N,03762.6533,E,1,12,1.0,137.98,M,0,M,0,0000
$GPGLL,5569.2236,N,03762.6533,E,163315.000,A
$GPRMC,163316.000,A,5569.2236,N,03762.6537,E,,,280808,,
$GPGGA,163316.000,5569.2236,N,03762.6537,E,1,12,1.0,137.97,M,0,M,0,0000
$GPGLL,5569.2236,N,03762.6537,E,163316.000,A
$GPRMC,163316.000,A,5569.2236,N,03762.6541,E,,,280808,,
$GPGGA,163316.000,5569.2236,N,03762.6541,E,1,12,1.0,137.96,M,0,M,0,0000
$GPGLL,5569.2236,N,03762.6541,E,163316.000,A
$GPRMC,163319.000,A,5569.2236,N,03762.6537,E,,,280808,,
$GPGGA,163319.000,5569.2236,N,03762.6537,E,1,12,1.0,137.97,M,0,M,0,0000
$GPGLL,5569.2236,N,03762.6537,E,163319.000,A
$GPRMC,163320.000,A,5569.2236,N,03762.6541,E,,,280808,,
$GPGGA,163320.000,5569.2236,N,03762.6541,E,1,12,1.0,137.97,M,0,M,0,0000
$GPGLL,5569.2236,N,03762.6541,E,163320.000,A
$GPRMC,163322.000,A,5569.2243,N,03762.6556,E,,,280808,,
$GPGGA,163322.000,5569.2243,N,03762.6556,E,1,12,1.0,137.95,M,0,M,0,0000
$GPGLL,5569.2243,N,03762.6556,E,163322.000,A
$GPRMC,163323.000,A,5569.2247,N,03762.6575,E,,,280808,,
$GPGGA,163323.000,5569.2247,N,03762.6575,E,1,12,1.0,137.92,M,0,M,0,0000
$GPGLL,5569.2247,N,03762.6575,E,163323.000,A
$GPRMC,163323.000,A,5569.2251,N,03762.6594,E,,,280808,,
$GPGGA,163323.000,5569.2251,N,03762.6594,E,1,12,1.0,137.90,M,0,M,0,0000
$GPGLL,5569.2251,N,03762.6594,E,163323.000,A
$GPRMC,163324.000,A,5569.2251,N,03762.6606,E,,,280808,,
$GPGGA,163324.000,5569.2251,N,03762.6606,E,1,12,1.0,137.88,M,0,M,0,0000
$GPGLL,5569.2251,N,03762.6606,E,163324.000,A
$GPRMC,163326.000,A,5569.2247,N,03762.6621,E,,,280808,,
$GPGGA,163326.000,5569.2247,N,03762.6621,E,1,12,1.0,137.86,M,0,M,0,0000
$GPGLL,5569.2247,N,03762.6621,E,163326.000,A
$GPRMC,163327.000,A,5569.2236,N,03762.6632,E,,,280808,,
$GPGGA,163327.000,5569.2236,N,03762.6632,E,1,12,1.0,137.82,M,0,M,0,0000
$GPGLL,5569.2236,N,03762.6632,E,163327.000,A
$GPRMC,163327.000,A,5569.2075,N,03762.6999,E,,,280808,,
$GPGGA,163327.000,5569.2075,N,03762.6999,E,1,12,1.0,133.76,M,0,M,0,0000
$GPGLL,5569.2075,N,03762.6999,E,163327.000,A
$GPRMC,163328.000,A,5569.2133,N,03762.7269,E,,,280808,,
$GPGGA,163328.000,5569.2133,N,03762.7269,E,1,12,1.0,188.28,M,0,M,0,0000
$GPGLL,5569.2133,N,03762.7269,E,163328.000,A
$GPRMC,163330.000,A,5569.2133,N,03762.7308,E,,,280808,,
$GPGGA,163330.000,5569.2133,N,03762.7308,E,1,12,1.0,194.33,M,0,M,0,0000
$GPGLL,5569.2133,N,03762.7308,E,163330.000,A
$GPRMC,163331.000,A,5569.2125,N,03762.7342,E,,,280808,,
$GPGGA,163331.000,5569.2125,N,03762.7342,E,1,12,1.0,199.81,M,0,M,0,0000
$GPGLL,5569.2125,N,03762.7342,E,163331.000,A
$GPRMC,163331.000,A,5569.2106,N,03762.7399,E,,,280808,,
$GPGGA,163331.000,5569.2106,N,03762.7399,E,1,12,1.0,207.49,M,0,M,0,0000
$GPGLL,5569.2106,N,03762.7399,E,163331.000,A
$GPRMC,163332.000,A,5569.2079,N,03762.7388,E,,,280808,,
$GPGGA,163332.000,5569.2079,N,03762.7388,E,1,12,1.0,210.28,M,0,M,0,0000
$GPGLL,5569.2079,N,03762.7388,E,163332.000,A
$GPRMC,163334.000,A,5569.2110,N,03762.7228,E,,,280808,,
$GPGGA,163334.000,5569.2110,N,03762.7228,E,1,12,1.0,189.02,M,0,M,0,0000
$GPGLL,5569.2110,N,03762.7228,E,163334.000,A
$GPRMC,163335.000,A,5569.2114,N,03762.7220,E,,,280808,,
$GPGGA,163335.000,5569.2114,N,03762.7220,E,1,12,1.0,188.18,M,0,M,0,0000
$GPGLL,5569.2114,N,03762.7220,E,163335.000,A
$GPRMC,163335.000,A,5569.2125,N,03762.7197,E,,,280808,,
$GPGGA,163335.000,5569.2125,N,03762.7197,E,1,12,1.0,186.42,M,0,M,0,0000
$GPGLL,5569.2125,N,03762.7197,E,163335.000,A
$GPRMC,163336.000,A,5569.2129,N,03762.7189,E,,,280808,,
$GPGGA,163336.000,5569.2129,N,03762.7189,E,1,12,1.0,184.49,M,0,M,0,0000
$GPGLL,5569.2129,N,03762.7189,E,163336.000,A
$GPRMC,163338.000,A,5569.2129,N,03762.7182,E,,,280808,,
$GPGGA,163338.000,5569.2129,N,03762.7182,E,1,12,1.0,183.22,M,0,M,0,0000
$GPGLL,5569.2129,N,03762.7182,E,163338.000,A
$GPRMC,163339.000,A,5569.2129,N,03762.7174,E,,,280808,,
$GPGGA,163339.000,5569.2129,N,03762.7174,E,1,12,1.0,183.11,M,0,M,0,0000
$GPGLL,5569.2129,N,03762.7174,E,163339.000,A
$GPRMC,163406.000,A,5569.2133,N,03762.7163,E,,,280808,,
$GPGGA,163406.000,5569.2133,N,03762.7163,E,1,12,1.0,181.82,M,0,M,0,0000
$GPGLL,5569.2133,N,03762.7163,E,163406.000,A
$GPRMC,163414.000,A,5569.2136,N,03762.7159,E,,,280808,,
$GPGGA,163414.000,5569.2136,N,03762.7159,E,1,12,1.0,181.48,M,0,M,0,0000
$GPGLL,5569.2136,N,03762.7159,E,163414.000,A
$GPRMC,163416.000,A,5569.2144,N,03762.7151,E,,,280808,,
$GPGGA,163416.000,5569.2144,N,03762.7151,E,1,12,1.0,181.04,M,0,M,0,0000
$GPGLL,5569.2144,N,03762.7151,E,163416.000,A
$GPRMC,163417.000,A,5569.2156,N,03762.7147,E,,,280808,,
$GPGGA,163417.000,5569.2156,N,03762.7147,E,1,12,1.0,180.17,M,0,M,0,0000
$GPGLL,5569.2156,N,03762.7147,E,163417.000,A
$GPRMC,163417.000,A,5569.2171,N,03762.7144,E,,,280808,,
$GPGGA,163417.000,5569.2171,N,03762.7144,E,1,12,1.0,178.88,M,0,M,0,0000
$GPGLL,5569.2171,N,03762.7144,E,163417.000,A
$GPRMC,163421.000,A,5569.2167,N,03762.7140,E,,,280808,,
$GPGGA,163421.000,5569.2167,N,03762.7140,E,1,12,1.0,177.52,M,0,M,0,0000
$GPGLL,5569.2167,N,03762.7140,E,163421.000,A
$GPRMC,163422.000,A,5569.2159,N,03762.7136,E,,,280808,,
$GPGGA,163422.000,5569.2159,N,03762.7136,E,1,12,1.0,176.37,M,0,M,0,0000
$GPGLL,5569.2159,N,03762.7136,E,163422.000,A
$GPRMC,163424.000,A,5569.2156,N,03762.7132,E,,,280808,,
$GPGGA,163424.000,5569.2156,N,03762.7132,E,1,12,1.0,175.60,M,0,M,0,0000
$GPGLL,5569.2156,N,03762.7132,E,163424.000,A
$GPRMC,163425.000,A,5569.2148,N,03762.7136,E,,,280808,,
$GPGGA,163425.000,5569.2148,N,03762.7136,E,1,12,1.0,175.69,M,0,M,0,0000
$GPGLL,5569.2148,N,03762.7136,E,163425.000,A
$GPRMC,163425.000,A,5569.2144,N,03762.7144,E,,,280808,,
$GPGGA,163425.000,5569.2144,N,03762.7144,E,1,12,1.0,175.42,M,0,M,0,0000
$GPGLL,5569.2144,N,03762.7144,E,163425.000,A
$GPRMC,163426.000,A,5569.2140,N,03762.7147,E,,,280808,,
$GPGGA,163426.000,5569.2140,N,03762.7147,E,1,12,1.0,175.27,M,0,M,0,0000
$GPGLL,5569.2140,N,03762.7147,E,163426.000,A
$GPRMC,163429.000,A,5569.2136,N,03762.7144,E,,,280808,,
$GPGGA,163429.000,5569.2136,N,03762.7144,E,1,12,1.0,174.32,M,0,M,0,0000
$GPGLL,5569.2136,N,03762.7144,E,163429.000,A
$GPRMC,163432.000,A,5569.2136,N,03762.7140,E,,,280808,,
$GPGGA,163432.000,5569.2136,N,03762.7140,E,1,12,1.0,173.31,M,0,M,0,0000
$GPGLL,5569.2136,N,03762.7140,E,163432.000,A
$GPRMC,163433.000,A,5569.2129,N,03762.7136,E,,,280808,,
$GPGGA,163433.000,5569.2129,N,03762.7136,E,1,12,1.0,171.93,M,0,M,0,0000
$GPGLL,5569.2129,N,03762.7136,E,163433.000,A
$GPRMC,163433.000,A,5569.2110,N,03762.7136,E,,,280808,,
$GPGGA,163433.000,5569.2110,N,03762.7136,E,1,12,1.0,170.87,M,0,M,0,0000
$GPGLL,5569.2110,N,03762.7136,E,163433.000,A
$GPRMC,163434.000,A,5569.2083,N,03762.7132,E,,,280808,,
$GPGGA,163434.000,5569.2083,N,03762.7132,E,1,12,1.0,170.19,M,0,M,0,0000
$GPGLL,5569.2083,N,03762.7132,E,163434.000,A
$GPRMC,163436.000,A,5569.2053,N,03762.7132,E,,,280808,,
$GPGGA,163436.000,5569.2053,N,03762.7132,E,1,12,1.0,170.25,M,0,M,0,0000
$GPGLL,5569.2053,N,03762.7132,E,163436.000,A
$GPRMC,163437.000,A,5569.2014,N,03762.7128,E,,,280808,,
$GPGGA,163437.000,5569.2014,N,03762.7128,E,1,12,1.0,169.14,M,0,M,0,0000
$GPGLL,5569.2014,N,03762.7128,E,163437.000,A
$GPRMC,163437.000,A,5569.1969,N,03762.7132,E,,,280808,,
$GPGGA,163437.000,5569.1969,N,03762.7132,E,1,12,1.0,167.94,M,0,M,0,0000
$GPGLL,5569.1969,N,03762.7132,E,163437.000,A
$GPRMC,163439.000,A,5569.1911,N,03762.7140,E,,,280808,,
$GPGGA,163439.000,5569.1911,N,03762.7140,E,1,12,1.0,167.51,M,0,M,0,0000
$GPGLL,5569.1911,N,03762.7140,E,163439.000,A
$GPRMC,163440.000,A,5569.1843,N,03762.7155,E,,,280808,,
$GPGGA,163440.000,5569.1843,N,03762.7155,E,1,12,1.0,167.68,M,0,M,0,0000
$GPGLL,5569.1843,N,03762.7155,E,163440.000,A
$GPRMC,163440.000,A,5569.1770,N,03762.7170,E,,,280808,,
$GPGGA,163440.000,5569.1770,N,03762.7170,E,1,12,1.0,167.91,M,0,M,0,0000
$GPGLL,5569.1770,N,03762.7170,E,163440.000,A
$GPRMC,163441.000,A,5569.1690,N,03762.7186,E,,,280808,,
$GPGGA,163441.000,5569.1690,N,03762.7186,E,1,12,1.0,168.04,M,0,M,0,0000
$GPGLL,5569.1690,N,03762.7186,E,163441.000,A
$GPRMC,163443.000,A,5569.1614,N,03762.7201,E,,,280808,,
$GPGGA,163443.000,5569.1614,N,03762.7201,E,1,12,1.0,167.97,M,0,M,0,0000
$GPGLL,5569.1614,N,03762.7201,E,163443.000,A
$GPRMC,163444.000,A,5569.1541,N,03762.7220,E,,,280808,,
$GPGGA,163444.000,5569.1541,N,03762.7220,E,1,12,1.0,167.16,M,0,M,0,0000
$GPGLL,5569.1541,N,03762.7220,E,163444.000,A
$GPRMC,163444.000,A,5569.1473,N,03762.7250,E,,,280808,,
$GPGGA,163444.000,5569.1473,N,03762.7250,E,1,12,1.0,166.84,M,0,M,0,0000
$GPGLL,5569.1473,N,03762.7250,E,163444.000,A
$GPRMC,163445.000,A,5569.1370,N,03762.7300,E,,,280808,,
$GPGGA,163445.000,5569.1370,N,03762.7300,E,1,12,1.0,167.43,M,0,M,0,0000
$GPGLL,5569.1370,N,03762.7300,E,163445.000,A
$GPRMC,163447.000,A,5569.1259,N,03762.7334,E,,,280808,,
$GPGGA,163447.000,5569.1259,N,03762.7334,E,1,12,1.0,167.22,M,0,M,0,0000
$GPGLL,5569.1259,N,03762.7334,E,163447.000,A
$GPRMC,163448.000,A,5569.1148,N,03762.7369,E,,,280808,,
$GPGGA,163448.000,5569.1148,N,03762.7369,E,1,12,1.0,166.90,M,0,M,0,0000
$GPGLL,5569.1148,N,03762.7369,E,163448.000,A
$GPRMC,163448.000,A,5569.1042,N,03762.7399,E,,,280808,,
$GPGGA,163448.000,5569.1042,N,03762.7399,E,1,12,1.0,166.35,M,0,M,0,0000
$GPGLL,5569.1042,N,03762.7399,E,163448.000,A
$GPRMC,163449.000,A,5569.0927,N,03762.7430,E,,,280808,,
$GPGGA,163449.000,5569.0927,N,03762.7430,E,1,12,1.0,165.85,M,0,M,0,0000
$GPGLL,5569.0927,N,03762.7430,E,163449.000,A
$GPRMC,163451.000,A,5569.0813,N,03762.7468,E,,,280808,,
$GPGGA,163451.000,5569.0813,N,03762.7468,E,1,12,1.0,165.05,M,0,M,0,0000
$GPGLL,5569.0813,N,03762.7468,E,163451.000,A
$GPRMC,163452.000,A,5569.0691,N,03762.7506,E,,,280808,,
$GPGGA,163452.000,5569.0691,N,03762.7506,E,1,12,1.0,164.39,M,0,M,0,0000
$GPGLL,5569.0691,N,03762.7506,E,163452.000,A
$GPRMC,163452.000,A,5569.0561,N,03762.7544,E,,,280808,,
$GPGGA,163452.000,5569.0561,N,03762.7544,E,1,12,1.0,163.25,M,0,M,0,0000
$GPGLL,5569.0561,N,03762.7544,E,163452.000,A
$GPRMC,163453.000,A,5569.0431,N,03762.7594,E,,,280808,,
$GPGGA,163453.000,5569.0431,N,03762.7594,E,1,12,1.0,162.97,M,0,M,0,0000
$GPGLL,5569.0431,N,03762.7594,E,163453.000,A
$GPRMC,163455.000,A,5569.0298,N,03762.7643,E,,,280808,,
$GPGGA,163455.000,5569.0298,N,03762.7643,E,1,12,1.0,162.12,M,0,M,0,0000
$GPGLL,5569.0298,N,03762.7643,E,163455.000,A
$GPRMC,163456.000,A,5569.0157,N,03762.7697,E,,,280808,,
$GPGGA,163456.000,5569.0157,N,03762.7697,E,1,12,1.0,161.40,M,0,M,0,0000
$GPGLL,5569.0157,N,03762.7697,E,163456.000,A
$GPRMC,163456.000,A,5569.0008,N,03762.7758,E,,,280808,,
$GPGGA,163456.000,5569.0008,N,03762.7758,E,1,12,1.0,161.07,M,0,M,0,0000
$GPGLL,5569.0008,N,03762.7758,E,163456.000,A
$GPRMC,163457.000,A,5568.9859,N,03762.7838,E,,,280808,,
$GPGGA,163457.000,5568.9859,N,03762.7838,E,1,12,1.0,160.81,M,0,M,0,0000
$GPGLL,5568.9859,N,03762.7838,E,163457.000,A
$GPRMC,163459.000,A,5568.9703,N,03762.7918,E,,,280808,,
$GPGGA,163459.000,5568.9703,N,03762.7918,E,1,12,1.0,160.31,M,0,M,0,0000
$GPGLL,5568.9703,N,03762.7918,E,163459.000,A
$GPRMC,163500.000,A,5568.9542,N,03762.7994,E,,,280808,,
$GPGGA,163500.000,5568.9542,N,03762.7994,E,1,12,1.0,160.41,M,0,M,0,0000
$GPGLL,5568.9542,N,03762.7994,E,163500.000,A
$GPRMC,163500.000,A,5568.9382,N,03762.8071,E,,,280808,,
$GPGGA,163500.000,5568.9382,N,03762.8071,E,1,12,1.0,160.06,M,0,M,0,0000
$GPGLL,5568.9382,N,03762.8071,E,163500.000,A
$GPRMC,163501.000,A,5568.9218,N,03762.8158,E,,,280808,,
$GPGGA,163501.000,5568.9218,N,03762.8158,E,1,12,1.0,159.41,M,0,M,0,0000
$GPGLL,5568.9218,N,03762.8158,E,163501.000,A
$GPRMC,163503.000,A,5568.9054,N,03762.8235,E,,,280808,,
$GPGGA,163503.000,5568.9054,N,03762.8235,E,1,12,1.0,159.09,M,0,M,0,0000
$GPGLL,5568.9054,N,03762.8235,E,163503.000,A
$GPRMC,163504.000,A,5568.8890,N,03762.8311,E,,,280808,,
$GPGGA,163504.000,5568.8890,N,03762.8311,E,1,12,1.0,159.20,M,0,M,0,0000
$GPGLL,5568.8890,N,03762.8311,E,163504.000,A
$GPRMC,163504.000,A,5568.8726,N,03762.8387,E,,,280808,,
$GPGGA,163504.000,5568.8726,N,03762.8387,E,1,12,1.0,159.79,M,0,M,0,0000
$GPGLL,5568.8726,N,03762.8387,E,163504.000,A
$GPRMC,163506.000,A,5568.8555,N,03762.8467,E,,,280808,,
$GPGGA,163506.000,5568.8555,N,03762.8467,E,1,12,1.0,159.61,M,0,M,0,0000
$GPGLL,5568.8555,N,03762.8467,E,163506.000,A
$GPRMC,163507.000,A,5568.8387,N,03762.8547,E,,,280808,,
$GPGGA,163507.000,5568.8387,N,03762.8547,E,1,12,1.0,159.62,M,0,M,0,0000
$GPGLL,5568.8387,N,03762.8547,E,163507.000,A
$GPRMC,163507.000,A,5568.8215,N,03762.8635,E,,,280808,,
$GPGGA,163507.000,5568.8215,N,03762.8635,E,1,12,1.0,159.04,M,0,M,0,0000
$GPGLL,5568.8215,N,03762.8635,E,163507.000,A
$GPRMC,163508.000,A,5568.8040,N,03762.8719,E,,,280808,,
$GPGGA,163508.000,5568.8040,N,03762.8719,E,1,12,1.0,159.10,M,0,M,0,0000
$GPGLL,5568.8040,N,03762.8719,E,163508.000,A
$GPRMC,163510.000,A,5568.7856,N,03762.8811,E,,,280808,,
$GPGGA,163510.000,5568.7856,N,03762.8811,E,1,12,1.0,159.44,M,0,M,0,0000
$GPGLL,5568.7856,N,03762.8811,E,163510.000,A
$GPRMC,163511.000,A,5568.7669,N,03762.8895,E,,,280808,,
$GPGGA,163511.000,5568.7669,N,03762.8895,E,1,12,1.0,158.85,M,0,M,0,0000
$GPGLL,5568.7669,N,03762.8895,E,163511.000,A
$GPRMC,163511.000,A,5568.7479,N,03762.8986,E,,,280808,,
$GPGGA,163511.000,5568.7479,N,03762.8986,E,1,12,1.0,158.23,M,0,M,0,0000
$GPGLL,5568.7479,N,03762.8986,E,163511.000,A
$GPRMC,163512.000,A,5568.7284,N,03762.9074,E,,,280808,,
$GPGGA,163512.000,5568.7284,N,03762.9074,E,1,12,1.0,157.49,M,0,M,0,0000
$GPGLL,5568.7284,N,03762.9074,E,163512.000,A
$GPRMC,163514.000,A,5568.7093,N,03762.9162,E,,,280808,,
$GPGGA,163514.000,5568.7093,N,03762.9162,E,1,12,1.0,156.62,M,0,M,0,0000
$GPGLL,5568.7093,N,03762.9162,E,163514.000,A
$GPRMC,163515.000,A,5568.6903,N,03762.9249,E,,,280808,,
$GPGGA,163515.000,5568.6903,N,03762.9249,E,1,12,1.0,156.41,M,0,M,0,0000
$GPGLL,5568.6903,N,03762.9249,E,163515.000,A
$GPRMC,163515.000,A,5568.6720,N,03762.9337,E,,,280808,,
$GPGGA,163515.000,5568.6720,N,03762.9337,E,1,12,1.0,155.65,M,0,M,0,0000
$GPGLL,5568.6720,N,03762.9337,E,163515.000,A
$GPRMC,163516.000,A,5568.6540,N,03762.9421,E,,,280808,,
$GPGGA,163516.000,5568.6540,N,03762.9421,E,1,12,1.0,155.61,M,0,M,0,0000
$GPGLL,5568.6540,N,03762.9421,E,163516.000,A
$GPRMC,163518.000,A,5568.6365,N,03762.9509,E,,,280808,,
$GPGGA,163518.000,5568.6365,N,03762.9509,E,1,12,1.0,155.62,M,0,M,0,0000
$GPGLL,5568.6365,N,03762.9509,E,163518.000,A
$GPRMC,163519.000,A,5568.6189,N,03762.9600,E,,,280808,,
$GPGGA,163519.000,5568.6189,N,03762.9600,E,1,12,1.0,154.89,M,0,M,0,0000
$GPGLL,5568.6189,N,03762.9600,E,163519.000,A
$GPRMC,163519.000,A,5568.6014,N,03762.9719,E,,,280808,,
$GPGGA,163519.000,5568.6014,N,03762.9719,E,1,12,1.0,154.88,M,0,M,0,0000
$GPGLL,5568.6014,N,03762.9719,E,163519.000,A
$GPRMC,163520.000,A,5568.5850,N,03762.9856,E,,,280808,,
$GPGGA,163520.000,5568.5850,N,03762.9856,E,1,12,1.0,154.78,M,0,M,0,0000
$GPGLL,5568.5850,N,03762.9856,E,163520.000,A
$GPRMC,163522.000,A,5568.5693,N,03763.0001,E,,,280808,,
$GPGGA,163522.000,5568.5693,N,03763.0001,E,1,12,1.0,154.47,M,0,M,0,0000
$GPGLL,5568.5693,N,03763.0001,E,163522.000,A
$GPRMC,163523.000,A,5568.5560,N,03763.0150,E,,,280808,,
$GPGGA,163523.000,5568.5560,N,03763.0150,E,1,12,1.0,154.60,M,0,M,0,0000
$GPGLL,5568.5560,N,03763.0150,E,163523.000,A
$GPRMC,163523.000,A,5568.5434,N,03763.0302,E,,,280808,,
$GPGGA,163523.000,5568.5434,N,03763.0302,E,1,12,1.0,154.90,M,0,M,0,0000
$GPGLL,5568.5434,N,03763.0302,E,163523.000,A
$GPRMC,163524.000,A,5568.5316,N,03763.0462,E,,,280808,,
$GPGGA,163524.000,5568.5316,N,03763.0462,E,1,12,1.0,154.60,M,0,M,0,0000
$GPGLL,5568.5316,N,03763.0462,E,163524.000,A
$GPRMC,163526.000,A,5568.5194,N,03763.0642,E,,,280808,,
$GPGGA,163526.000,5568.5194,N,03763.0642,E,1,12,1.0,154.45,M,0,M,0,0000
$GPGLL,5568.5194,N,03763.0642,E,163526.000,A
$GPRMC,163527.000,A,5568.5068,N,03763.0821,E,,,280808,,
$GPGGA,163527.000,5568.5068,N,03763.0821,E,1,12,1.0,154.14,M,0,M,0,0000
$GPGLL,5568.5068,N,03763.0821,E,163527.000,A
$GPRMC,163527.000,A,5568.4946,N,03763.1012,E,,,280808,,
$GPGGA,163527.000,5568.4946,N,03763.1012,E,1,12,1.0,153.85,M,0,M,0,0000
$GPGLL,5568.4946,N,03763.1012,E,163527.000,A
$GPRMC,163528.000,A,5568.4820,N,03763.1210,E,,,280808,,
$GPGGA,163528.000,5568.4820,N,03763.1210,E,1,12,1.0,153.58,M,0,M,0,0000
$GPGLL,5568.4820,N,03763.1210,E,163528.000,A
$GPRMC,163530.000,A,5568.4694,N,03763.1416,E,,,280808,,
$GPGGA,163530.000,5568.4694,N,03763.1416,E,1,12,1.0,153.51,M,0,M,0,0000
$GPGLL,5568.4694,N,03763.1416,E,163530.000,A
$GPRMC,163531.000,A,5568.4572,N,03763.1630,E,,,280808,,
$GPGGA,163531.000,5568.4572,N,03763.1630,E,1,12,1.0,153.10,M,0,M,0,0000
$GPGLL,5568.4572,N,03763.1630,E,163531.000,A
$GPRMC,163531.000,A,5568.4442,N,03763.1847,E,,,280808,,
$GPGGA,163531.000,5568.4442,N,03763.1847,E,1,12,1.0,153.07,M,0,M,0,0000
$GPGLL,5568.4442,N,03763.1847,E,163531.000,A
$GPRMC,163533.000,A,5568.4320,N,03763.2061,E,,,280808,,
$GPGGA,163533.000,5568.4320,N,03763.2061,E,1,12,1.0,154.01,M,0,M,0,0000
$GPGLL,5568.4320,N,03763.2061,E,163533.000,A
$GPRMC,163534.000,A,5568.4198,N,03763.2271,E,,,280808,,
$GPGGA,163534.000,5568.4198,N,03763.2271,E,1,12,1.0,154.49,M,0,M,0,0000
$GPGLL,5568.4198,N,03763.2271,E,163534.000,A
$GPRMC,163534.000,A,5568.4076,N,03763.2480,E,,,280808,,
$GPGGA,163534.000,5568.4076,N,03763.2480,E,1,12,1.0,154.84,M,0,M,0,0000
$GPGLL,5568.4076,N,03763.2480,E,163534.000,A
$GPRMC,163535.000,A,5568.3958,N,03763.2686,E,,,280808,,
$GPGGA,163535.000,5568.3958,N,03763.2686,E,1,12,1.0,155.13,M,0,M,0,0000
$GPGLL,5568.3958,N,03763.2686,E,163535.000,A
$GPRMC,163537.000,A,5568.3847,N,03763.2900,E,,,280808,,
$GPGGA,163537.000,5568.3847,N,03763.2900,E,1,12,1.0,156.25,M,0,M,0,0000
$GPGLL,5568.3847,N,03763.2900,E,163537.000,A
$GPRMC,163538.000,A,5568.3736,N,03763.3106,E,,,280808,,
$GPGGA,163538.000,5568.3736,N,03763.3106,E,1,12,1.0,156.98,M,0,M,0,0000
$GPGLL,5568.3736,N,03763.3106,E,163538.000,A
$GPRMC,163538.000,A,5568.3630,N,03763.3300,E,,,280808,,
$GPGGA,163538.000,5568.3630,N,03763.3300,E,1,12,1.0,157.23,M,0,M,0,0000
$GPGLL,5568.3630,N,03763.3300,E,163538.000,A
$GPRMC,163539.000,A,5568.3523,N,03763.3487,E,,,280808,,
$GPGGA,163539.000,5568.3523,N,03763.3487,E,1,12,1.0,157.57,M,0,M,0,0000
$GPGLL,5568.3523,N,03763.3487,E,163539.000,A
$GPRMC,163541.000,A,5568.3424,N,03763.3655,E,,,280808,,
$GPGGA,163541.000,5568.3424,N,03763.3655,E,1,12,1.0,158.07,M,0,M,0,0000
$GPGLL,5568.3424,N,03763.3655,E,163541.000,A
$GPRMC,163542.000,A,5568.3321,N,03763.3804,E,,,280808,,
$GPGGA,163542.000,5568.3321,N,03763.3804,E,1,12,1.0,158.44,M,0,M,0,0000
$GPGLL,5568.3321,N,03763.3804,E,163542.000,A
$GPRMC,163542.000,A,5568.3214,N,03763.3922,E,,,280808,,
$GPGGA,163542.000,5568.3214,N,03763.3922,E,1,12,1.0,158.97,M,0,M,0,0000
$GPGLL,5568.3214,N,03763.3922,E,163542.000,A
$GPRMC,163543.000,A,5568.3107,N,03763.4010,E,,,280808,,
$GPGGA,163543.000,5568.3107,N,03763.4010,E,1,12,1.0,159.47,M,0,M,0,0000
$GPGLL,5568.3107,N,03763.4010,E,163543.000,A
$GPRMC,163545.000,A,5568.2993,N,03763.4060,E,,,280808,,
$GPGGA,163545.000,5568.2993,N,03763.4060,E,1,12,1.0,159.83,M,0,M,0,0000
$GPGLL,5568.2993,N,03763.4060,E,163545.000,A
$GPRMC,163546.000,A,5568.2886,N,03763.4060,E,,,280808,,
$GPGGA,163546.000,5568.2886,N,03763.4060,E,1,12,1.0,159.90,M,0,M,0,0000
$GPGLL,5568.2886,N,03763.4060,E,163546.000,A
$GPRMC,163546.000,A,5568.2779,N,03763.4044,E,,,280808,,
$GPGGA,163546.000,5568.2779,N,03763.4044,E,1,12,1.0,160.20,M,0,M,0,0000
$GPGLL,5568.2779,N,03763.4044,E,163546.000,A
$GPRMC,163547.000,A,5568.2688,N,03763.4018,E,,,280808,,
$GPGGA,163547.000,5568.2688,N,03763.4018,E,1,12,1.0,160.26,M,0,M,0,0000
$GPGLL,5568.2688,N,03763.4018,E,163547.000,A
$GPRMC,163549.000,A,5568.2607,N,03763.3991,E,,,280808,,
$GPGGA,163549.000,5568.2607,N,03763.3991,E,1,12,1.0,160.00,M,0,M,0,0000
$GPGLL,5568.2607,N,03763.3991,E,163549.000,A
$GPRMC,163550.000,A,5568.2531,N,03763.3968,E,,,280808,,
$GPGGA,163550.000,5568.2531,N,03763.3968,E,1,12,1.0,159.21,M,0,M,0,0000
$GPGLL,5568.2531,N,03763.3968,E,163550.000,A
$GPRMC,163550.000,A,5568.2474,N,03763.3960,E,,,280808,,
$GPGGA,163550.000,5568.2474,N,03763.3960,E,1,12,1.0,159.50,M,0,M,0,0000
$GPGLL,5568.2474,N,03763.3960,E,163550.000,A
$GPRMC,163551.000,A,5568.2417,N,03763.3949,E,,,280808,,
$GPGGA,163551.000,5568.2417,N,03763.3949,E,1,12,1.0,159.64,M,0,M,0,0000
$GPGLL,5568.2417,N,03763.3949,E,163551.000,A
$GPRMC,163553.000,A,5568.2367,N,03763.3938,E,,,280808,,
$GPGGA,163553.000,5568.2367,N,03763.3938,E,1,12,1.0,159.13,M,0,M,0,0000
$GPGLL,5568.2367,N,03763.3938,E,163553.000,A
$GPRMC,163554.000,A,5568.2317,N,03763.3922,E,,,280808,,
$GPGGA,163554.000,5568.2317,N,03763.3922,E,1,12,1.0,157.94,M,0,M,0,0000
$GPGLL,5568.2317,N,03763.3922,E,163554.000,A
$GPRMC,163554.000,A,5568.2268,N,03763.3915,E,,,280808,,
$GPGGA,163554.000,5568.2268,N,03763.3915,E,1,12,1.0,157.85,M,0,M,0,0000
$GPGLL,5568.2268,N,03763.3915,E,163554.000,A
$GPRMC,163555.000,A,5568.2218,N,03763.3903,E,,,280808,,
$GPGGA,163555.000,5568.2218,N,03763.3903,E,1,12,1.0,157.56,M,0,M,0,0000
$GPGLL,5568.2218,N,03763.3903,E,163555.000,A
$GPRMC,163557.000,A,5568.2165,N,03763.3892,E,,,280808,,
$GPGGA,163557.000,5568.2165,N,03763.3892,E,1,12,1.0,157.60,M,0,M,0,0000
$GPGLL,5568.2165,N,03763.3892,E,163557.000,A
$GPRMC,163558.000,A,5568.2104,N,03763.3877,E,,,280808,,
$GPGGA,163558.000,5568.2104,N,03763.3877,E,1,12,1.0,157.30,M,0,M,0,0000
$GPGLL,5568.2104,N,03763.3877,E,163558.000,A
$GPRMC,163558.000,A,5568.2047,N,03763.3861,E,,,280808,,
$GPGGA,163558.000,5568.2047,N,03763.3861,E,1,12,1.0,157.12,M,0,M,0,0000
$GPGLL,5568.2047,N,03763.3861,E,163558.000,A
$GPRMC,163600.000,A,5568.1993,N,03763.3854,E,,,280808,,
$GPGGA,163600.000,5568.1993,N,03763.3854,E,1,12,1.0,157.23,M,0,M,0,0000
$GPGLL,5568.1993,N,03763.3854,E,163600.000,A
$GPRMC,163601.000,A,5568.1940,N,03763.3842,E,,,280808,,
$GPGGA,163601.000,5568.1940,N,03763.3842,E,1,12,1.0,156.98,M,0,M,0,0000
$GPGLL,5568.1940,N,03763.3842,E,163601.000,A
$GPRMC,163601.000,A,5568.1894,N,03763.3827,E,,,280808,,
$GPGGA,163601.000,5568.1894,N,03763.3827,E,1,12,1.0,156.52,M,0,M,0,0000
$GPGLL,5568.1894,N,03763.3827,E,163601.000,A
$GPRMC,163602.000,A,5568.1848,N,03763.3808,E,,,280808,,
$GPGGA,163602.000,5568.1848,N,03763.3808,E,1,12,1.0,156.33,M,0,M,0,0000
$GPGLL,5568.1848,N,03763.3808,E,163602.000,A
$GPRMC,163604.000,A,5568.1806,N,03763.3789,E,,,280808,,
$GPGGA,163604.000,5568.1806,N,03763.3789,E,1,12,1.0,155.50,M,0,M,0,0000
$GPGLL,5568.1806,N,03763.3789,E,163604.000,A
$GPRMC,163605.000,A,5568.1768,N,03763.3781,E,,,280808,,
$GPGGA,163605.000,5568.1768,N,03763.3781,E,1,12,1.0,156.00,M,0,M,0,0000
$GPGLL,5568.1768,N,03763.3781,E,163605.000,A
$GPRMC,163605.000,A,5568.1738,N,03763.3774,E,,,280808,,
$GPGGA,163605.000,5568.1738,N,03763.3774,E,1,12,1.0,156.17,M,0,M,0,0000
$GPGLL,5568.1738,N,03763.3774,E,163605.000,A
$GPRMC,163606.000,A,5568.1711,N,03763.3770,E,,,280808,,
$GPGGA,163606.000,5568.1711,N,03763.3770,E,1,12,1.0,156.52,M,0,M,0,0000
$GPGLL,5568.1711,N,03763.3770,E,163606.000,A
$GPRMC,163608.000,A,5568.1692,N,03763.3770,E,,,280808,,
$GPGGA,163608.000,5568.1692,N,03763.3770,E,1,12,1.0,156.77,M,0,M,0,0000
$GPGLL,5568.1692,N,03763.3770,E,163608.000,A
$GPRMC,163617.000,A,5568.1688,N,03763.3766,E,,,280808,,
$GPGGA,163617.000,5568.1688,N,03763.3766,E,1,12,1.0,156.76,M,0,M,0,0000
$GPGLL,5568.1688,N,03763.3766,E,163617.000,A
$GPRMC,163639.000,A,5568.1688,N,03763.3762,E,,,280808,,
$GPGGA,163639.000,5568.1688,N,03763.3762,E,1,12,1.0,156.87,M,0,M,0,0000
$GPGLL,5568.1688,N,03763.3762,E,163639.000,A
$GPRMC,163647.000,A,5568.1684,N,03763.3762,E,,,280808,,
$GPGGA,163647.000,5568.1684,N,03763.3762,E,1,12,1.0,157.24,M,0,M,0,0000
$GPGLL,5568.1684,N,03763.3762,E,163647.000,A
$GPRMC,163648.000,A,5568.1669,N,03763.3758,E,,,280808,,
$GPGGA,163648.000,5568.1669,N,03763.3758,E,1,12,1.0,157.16,M,0,M,0,0000
$GPGLL,5568.1669,N,03763.3758,E,163648.000,A
$GPRMC,163648.000,A,5568.1642,N,03763.3747,E,,,280808,,
$GPGGA,163648.000,5568.1642,N,03763.3747,E,1,12,1.0,157.02,M,0,M,0,0000
$GPGLL,5568.1642,N,03763.3747,E,163648.000,A
$GPRMC,163649.000,A,5568.1604,N,03763.3732,E,,,280808,,
$GPGGA,163649.000,5568.1604,N,03763.3732,E,1,12,1.0,156.93,M,0,M,0,0000
$GPGLL,5568.1604,N,03763.3732,E,163649.000,A
$GPRMC,163651.000,A,5568.1562,N,03763.3716,E,,,280808,,
$GPGGA,163651.000,5568.1562,N,03763.3716,E,1,12,1.0,156.91,M,0,M,0,0000
$GPGLL,5568.1562,N,03763.3716,E,163651.000,A
$GPRMC,163652.000,A,5568.1524,N,03763.3709,E,,,280808,,
$GPGGA,163652.000,5568.1524,N,03763.3709,E,1,12,1.0,156.88,M,0,M,0,0000
$GPGLL,5568.1524,N,03763.3709,E,163652.000,A
$GPRMC,163652.000,A,5568.1482,N,03763.3701,E,,,280808,,
$GPGGA,163652.000,5568.1482,N,03763.3701,E,1,12,1.0,156.87,M,0,M,0,0000
$GPGLL,5568.1482,N,03763.3701,E,163652.000,A
$GPRMC,163654.000,A,5568.1440,N,03763.3693,E,,,280808,,
$GPGGA,163654.000,5568.1440,N,03763.3693,E,1,12,1.0,156.75,M,0,M,0,0000
$GPGLL,5568.1440,N,03763.3693,E,163654.000,A
$GPRMC,163655.000,A,5568.1402,N,03763.3686,E,,,280808,,
$GPGGA,163655.000,5568.1402,N,03763.3686,E,1,12,1.0,156.47,M,0,M,0,0000
$GPGLL,5568.1402,N,03763.3686,E,163655.000,A
$GPRMC,163655.000,A,5568.1360,N,03763.3674,E,,,280808,,
$GPGGA,163655.000,5568.1360,N,03763.3674,E,1,12,1.0,156.83,M,0,M,0,0000
$GPGLL,5568.1360,N,03763.3674,E,163655.000,A
$GPRMC,163656.000,A,5568.1322,N,03763.3667,E,,,280808,,
$GPGGA,163656.000,5568.1322,N,03763.3667,E,1,12,1.0,156.79,M,0,M,0,0000
$GPGLL,5568.1322,N,03763.3667,E,163656.000,A
$GPRMC,163658.000,A,5568.1291,N,03763.3659,E,,,280808,,
$GPGGA,163658.000,5568.1291,N,03763.3659,E,1,12,1.0,156.88,M,0,M,0,0000
$GPGLL,5568.1291,N,03763.3659,E,163658.000,A
$GPRMC,163659.000,A,5568.1265,N,03763.3651,E,,,280808,,
$GPGGA,163659.000,5568.1265,N,03763.3651,E,1,12,1.0,156.33,M,0,M,0,0000
$GPGLL,5568.1265,N,03763.3651,E,163659.000,A
$GPRMC,163659.000,A,5568.1242,N,03763.3644,E,,,280808,,
$GPGGA,163659.000,5568.1242,N,03763.3644,E,1,12,1.0,156.08,M,0,M,0,0000
$GPGLL,5568.1242,N,03763.3644,E,163659.000,A
$GPRMC,163700.000,A,5568.1219,N,03763.3636,E,,,280808,,
$GPGGA,163700.000,5568.1219,N,03763.3636,E,1,12,1.0,155.54,M,0,M,0,0000
$GPGLL,5568.1219,N,03763.3636,E,163700.000,A
$GPRMC,163702.000,A,5568.1204,N,03763.3632,E,,,280808,,
$GPGGA,163702.000,5568.1204,N,03763.3632,E,1,12,1.0,155.96,M,0,M,0,0000
$GPGLL,5568.1204,N,03763.3632,E,163702.000,A
$GPRMC,163703.000,A,5568.1192,N,03763.3629,E,,,280808,,
$GPGGA,163703.000,5568.1192,N,03763.3629,E,1,12,1.0,155.89,M,0,M,0,0000
$GPGLL,5568.1192,N,03763.3629,E,163703.000,A
$GPRMC,163703.000,A,5568.1177,N,03763.3621,E,,,280808,,
$GPGGA,163703.000,5568.1177,N,03763.3621,E,1,12,1.0,155.63,M,0,M,0,0000
$GPGLL,5568.1177,N,03763.3621,E,163703.000,A
$GPRMC,163706.000,A,5568.1169,N,03763.3610,E,,,280808,,
$GPGGA,163706.000,5568.1169,N,03763.3610,E,1,12,1.0,155.13,M,0,M,0,0000
$GPGLL,5568.1169,N,03763.3610,E,163706.000,A
$GPRMC,163707.000,A,5568.1169,N,03763.3617,E,,,280808,,
$GPGGA,163707.000,5568.1169,N,03763.3617,E,1,12,1.0,155.48,M,0,M,0,0000
$GPGLL,5568.1169,N,03763.3617,E,163707.000,A
$GPRMC,163711.000,A,5568.1169,N,03763.3613,E,,,280808,,
$GPGGA,163711.000,5568.1169,N,03763.3613,E,1,12,1.0,155.32,M,0,M,0,0000
$GPGLL,5568.1169,N,03763.3613,E,163711.000,A
$GPRMC,163712.000,A,5568.1162,N,03763.3613,E,,,280808,,
$GPGGA,163712.000,5568.1162,N,03763.3613,E,1,12,1.0,155.47,M,0,M,0,0000
$GPGLL,5568.1162,N,03763.3613,E,163712.000,A
$GPRMC,163714.000,A,5568.1154,N,03763.3617,E,,,280808,,
$GPGGA,163714.000,5568.1154,N,03763.3617,E,1,12,1.0,155.20,M,0,M,0,0000
$GPGLL,5568.1154,N,03763.3617,E,163714.000,A
$GPRMC,163753.000,A,5568.1146,N,03763.3621,E,,,280808,,
$GPGGA,163753.000,5568.1146,N,03763.3621,E,1,12,1.0,155.36,M,0,M,0,0000
$GPGLL,5568.1146,N,03763.3621,E,163753.000,A
$GPRMC,163753.000,A,5568.1116,N,03763.3621,E,,,280808,,
$GPGGA,163753.000,5568.1116,N,03763.3621,E,1,12,1.0,155.66,M,0,M,0,0000
$GPGLL,5568.1116,N,03763.3621,E,163753.000,A
$GPRMC,163754.000,A,5568.1066,N,03763.3610,E,,,280808,,
$GPGGA,163754.000,5568.1066,N,03763.3610,E,1,12,1.0,155.84,M,0,M,0,0000
$GPGLL,5568.1066,N,03763.3610,E,163754.000,A
$GPRMC,163756.000,A,5568.1013,N,03763.3598,E,,,280808,,
$GPGGA,163756.000,5568.1013,N,03763.3598,E,1,12,1.0,155.56,M,0,M,0,0000
$GPGLL,5568.1013,N,03763.3598,E,163756.000,A
$GPRMC,163757.000,A,5568.0956,N,03763.3583,E,,,280808,,
$GPGGA,163757.000,5568.0956,N,03763.3583,E,1,12,1.0,155.30,M,0,M,0,0000
$GPGLL,5568.0956,N,03763.3583,E,163757.000,A
$GPRMC,163757.000,A,5568.0891,N,03763.3568,E,,,280808,,
$GPGGA,163757.000,5568.0891,N,03763.3568,E,1,12,1.0,155.36,M,0,M,0,0000
$GPGLL,5568.0891,N,03763.3568,E,163757.000,A
$GPRMC,163758.000,A,5568.0837,N,03763.3552,E,,,280808,,
$GPGGA,163758.000,5568.0837,N,03763.3552,E,1,12,1.0,155.40,M,0,M,0,0000
$GPGLL,5568.0837,N,03763.3552,E,163758.000,A
$GPRMC,163800.000,A,5568.0795,N,03763.3541,E,,,280808,,
$GPGGA,163800.000,5568.0795,N,03763.3541,E,1,12,1.0,155.78,M,0,M,0,0000
$GPGLL,5568.0795,N,03763.3541,E,163800.000,A
$GPRMC,163801.000,A,5568.0753,N,03763.3533,E,,,280808,,
$GPGGA,163801.000,5568.0753,N,03763.3533,E,1,12,1.0,156.11,M,0,M,0,0000
$GPGLL,5568.0753,N,03763.3533,E,163801.000,A
$GPRMC,163801.000,A,5568.0711,N,03763.3522,E,,,280808,,
$GPGGA,163801.000,5568.0711,N,03763.3522,E,1,12,1.0,156.06,M,0,M,0,0000
$GPGLL,5568.0711,N,03763.3522,E,163801.000,A
$GPRMC,163802.000,A,5568.0677,N,03763.3514,E,,,280808,,
$GPGGA,163802.000,5568.0677,N,03763.3514,E,1,12,1.0,156.17,M,0,M,0,0000
$GPGLL,5568.0677,N,03763.3514,E,163802.000,A
$GPRMC,163804.000,A,5568.0654,N,03763.3514,E,,,280808,,
$GPGGA,163804.000,5568.0654,N,03763.3514,E,1,12,1.0,156.47,M,0,M,0,0000
$GPGLL,5568.0654,N,03763.3514,E,163804.000,A
$GPRMC,163805.000,A,5568.0643,N,03763.3514,E,,,280808,,
$GPGGA,163805.000,5568.0643,N,03763.3514,E,1,12,1.0,156.61,M,0,M,0,0000
$GPGLL,5568.0643,N,03763.3514,E,163805.000,A
$GPRMC,163806.000,A,5568.0631,N,03763.3510,E,,,280808,,
$GPGGA,163806.000,5568.0631,N,03763.3510,E,1,12,1.0,156.53,M,0,M,0,0000
$GPGLL,5568.0631,N,03763.3510,E,163806.000,A
$GPRMC,163808.000,A,5568.0620,N,03763.3503,E,,,280808,,
$GPGGA,163808.000,5568.0620,N,03763.3503,E,1,12,1.0,156.73,M,0,M,0,0000
$GPGLL,5568.0620,N,03763.3503,E,163808.000,A
$GPRMC,163809.000,A,5568.0608,N,03763.3491,E,,,280808,,
$GPGGA,163809.000,5568.0608,N,03763.3491,E,1,12,1.0,156.39,M,0,M,0,0000
$GPGLL,5568.0608,N,03763.3491,E,163809.000,A
$GPRMC,163809.000,A,5568.0601,N,03763.3487,E,,,280808,,
$GPGGA,163809.000,5568.0601,N,03763.3487,E,1,12,1.0,156.65,M,0,M,0,0000
$GPGLL,5568.0601,N,03763.3487,E,163809.000,A
$GPRMC,163815.000,A,5568.0593,N,03763.3484,E,,,280808,,
$GPGGA,163815.000,5568.0593,N,03763.3484,E,1,12,1.0,156.87,M,0,M,0,0000
$GPGLL,5568.0593,N,03763.3484,E,163815.000,A
$GPRMC,163817.000,A,5568.0586,N,03763.3476,E,,,280808,,
$GPGGA,163817.000,5568.0586,N,03763.3476,E,1,12,1.0,155.81,M,0,M,0,0000
$GPGLL,5568.0586,N,03763.3476,E,163817.000,A
$GPRMC,163820.000,A,5568.0586,N,03763.3472,E,,,280808,,
$GPGGA,163820.000,5568.0586,N,03763.3472,E,1,12,1.0,155.27,M,0,M,0,0000
$GPGLL,5568.0586,N,03763.3472,E,163820.000,A
$GPRMC,163821.000,A,5568.0586,N,03763.3468,E,,,280808,,
$GPGGA,163821.000,5568.0586,N,03763.3468,E,1,12,1.0,155.05,M,0,M,0,0000
$GPGLL,5568.0586,N,03763.3468,E,163821.000,A
$GPRMC,163843.000,A,5568.0582,N,03763.3468,E,,,280808,,
$GPGGA,163843.000,5568.0582,N,03763.3468,E,1,12,1.0,155.01,M,0,M,0,0000
$GPGLL,5568.0582,N,03763.3468,E,163843.000,A
$GPRMC,163859.000,A,5568.0578,N,03763.3476,E,,,280808,,
$GPGGA,163859.000,5568.0578,N,03763.3476,E,1,12,1.0,155.88,M,0,M,0,0000
$GPGLL,5568.0578,N,03763.3476,E,163859.000,A
$GPRMC,163900.000,A,5568.0563,N,03763.3472,E,,,280808,,
$GPGGA,163900.000,5568.0563,N,03763.3472,E,1,12,1.0,155.73,M,0,M,0,0000
$GPGLL,5568.0563,N,03763.3472,E,163900.000,A
$GPRMC,163902.000,A,5568.0540,N,03763.3468,E,,,280808,,
$GPGGA,163902.000,5568.0540,N,03763.3468,E,1,12,1.0,155.96,M,0,M,0,0000
$GPGLL,5568.0540,N,03763.3468,E,163902.000,A
$GPRMC,163903.000,A,5568.0505,N,03763.3461,E,,,280808,,
$GPGGA,163903.000,5568.0505,N,03763.3461,E,1,12,1.0,156.29,M,0,M,0,0000
$GPGLL,5568.0505,N,03763.3461,E,163903.000,A
$GPRMC,163903.000,A,5568.0460,N,03763.3457,E,,,280808,,
$GPGGA,163903.000,5568.0460,N,03763.3457,E,1,12,1.0,156.70,M,0,M,0,0000
$GPGLL,5568.0460,N,03763.3457,E,163903.000,A
$GPRMC,163904.000,A,5568.0402,N,03763.3446,E,,,280808,,
$GPGGA,163904.000,5568.0402,N,03763.3446,E,1,12,1.0,156.47,M,0,M,0,0000
$GPGLL,5568.0402,N,03763.3446,E,163904.000,A
$GPRMC,163906.000,A,5568.0341,N,03763.3430,E,,,280808,,
$GPGGA,163906.000,5568.0341,N,03763.3430,E,1,12,1.0,156.13,M,0,M,0,0000
$GPGLL,5568.0341,N,03763.3430,E,163906.000,A
$GPRMC,163907.000,A,5568.0284,N,03763.3411,E,,,280808,,
$GPGGA,163907.000,5568.0284,N,03763.3411,E,1,12,1.0,155.79,M,0,M,0,0000
$GPGLL,5568.0284,N,03763.3411,E,163907.000,A
$GPRMC,163907.000,A,5568.0227,N,03763.3392,E,,,280808,,
$GPGGA,163907.000,5568.0227,N,03763.3392,E,1,12,1.0,156.32,M,0,M,0,0000
$GPGLL,5568.0227,N,03763.3392,E,163907.000,A
$GPRMC,163909.000,A,5568.0166,N,03763.3365,E,,,280808,,
$GPGGA,163909.000,5568.0166,N,03763.3365,E,1,12,1.0,157.31,M,0,M,0,0000
$GPGLL,5568.0166,N,03763.3365,E,163909.000,A
$GPRMC,163910.000,A,5568.0109,N,03763.3331,E,,,280808,,
$GPGGA,163910.000,5568.0109,N,03763.3331,E,1,12,1.0,158.06,M,0,M,0,0000
$GPGLL,5568.0109,N,03763.3331,E,163910.000,A
$GPRMC,163910.000,A,5568.0017,N,03763.3308,E,,,280808,,
$GPGGA,163910.000,5568.0017,N,03763.3308,E,1,12,1.0,158.29,M,0,M,0,0000
$GPGLL,5568.0017,N,03763.3308,E,163910.000,A
$GPRMC,163911.000,A,5567.9918,N,03763.3281,E,,,280808,,
$GPGGA,163911.000,5567.9918,N,03763.3281,E,1,12,1.0,158.37,M,0,M,0,0000
$GPGLL,5567.9918,N,03763.3281,E,163911.000,A
$GPRMC,163913.000,A,5567.9815,N,03763.3262,E,,,280808,,
$GPGGA,163913.000,5567.9815,N,03763.3262,E,1,12,1.0,158.59,M,0,M,0,0000
$GPGLL,5567.9815,N,03763.3262,E,163913.000,A
$GPRMC,163914.000,A,5567.9701,N,03763.3243,E,,,280808,,
$GPGGA,163914.000,5567.9701,N,03763.3243,E,1,12,1.0,159.02,M,0,M,0,0000
$GPGLL,5567.9701,N,03763.3243,E,163914.000,A
$GPRMC,163914.000,A,5567.9590,N,03763.3239,E,,,280808,,
$GPGGA,163914.000,5567.9590,N,03763.3239,E,1,12,1.0,159.08,M,0,M,0,0000
$GPGLL,5567.9590,N,03763.3239,E,163914.000,A
$GPRMC,163915.000,A,5567.9475,N,03763.3232,E,,,280808,,
$GPGGA,163915.000,5567.9475,N,03763.3232,E,1,12,1.0,159.30,M,0,M,0,0000
$GPGLL,5567.9475,N,03763.3232,E,163915.000,A
$GPRMC,163917.000,A,5567.9357,N,03763.3213,E,,,280808,,
$GPGGA,163917.000,5567.9357,N,03763.3213,E,1,12,1.0,158.87,M,0,M,0,0000
$GPGLL,5567.9357,N,03763.3213,E,163917.000,A
$GPRMC,163918.000,A,5567.9231,N,03763.3186,E,,,280808,,
$GPGGA,163918.000,5567.9231,N,03763.3186,E,1,12,1.0,159.27,M,0,M,0,0000
$GPGLL,5567.9231,N,03763.3186,E,163918.000,A
$GPRMC,163918.000,A,5567.9105,N,03763.3159,E,,,280808,,
$GPGGA,163918.000,5567.9105,N,03763.3159,E,1,12,1.0,158.90,M,0,M,0,0000
$GPGLL,5567.9105,N,03763.3159,E,163918.000,A
$GPRMC,163919.000,A,5567.8976,N,03763.3133,E,,,280808,,
$GPGGA,163919.000,5567.8976,N,03763.3133,E,1,12,1.0,159.14,M,0,M,0,0000
$GPGLL,5567.8976,N,03763.3133,E,163919.000,A
$GPRMC,163921.000,A,5567.8846,N,03763.3106,E,,,280808,,
$GPGGA,163921.000,5567.8846,N,03763.3106,E,1,12,1.0,159.36,M,0,M,0,0000
$GPGLL,5567.8846,N,03763.3106,E,163921.000,A
$GPRMC,163922.000,A,5567.8713,N,03763.3072,E,,,280808,,
$GPGGA,163922.000,5567.8713,N,03763.3072,E,1,12,1.0,159.91,M,0,M,0,0000
$GPGLL,5567.8713,N,03763.3072,E,163922.000,A
$GPRMC,163922.000,A,5567.8571,N,03763.3041,E,,,280808,,
$GPGGA,163922.000,5567.8571,N,03763.3041,E,1,12,1.0,160.50,M,0,M,0,0000
$GPGLL,5567.8571,N,03763.3041,E,163922.000,A
$GPRMC,163923.000,A,5567.8434,N,03763.3011,E,,,280808,,
$GPGGA,163923.000,5567.8434,N,03763.3011,E,1,12,1.0,161.27,M,0,M,0,0000
$GPGLL,5567.8434,N,03763.3011,E,163923.000,A
$GPRMC,163925.000,A,5567.8297,N,03763.2980,E,,,280808,,
$GPGGA,163925.000,5567.8297,N,03763.2980,E,1,12,1.0,162.09,M,0,M,0,0000
$GPGLL,5567.8297,N,03763.2980,E,163925.000,A
$GPRMC,163926.000,A,5567.8156,N,03763.2953,E,,,280808,,
$GPGGA,163926.000,5567.8156,N,03763.2953,E,1,12,1.0,163.30,M,0,M,0,0000
$GPGLL,5567.8156,N,03763.2953,E,163926.000,A
$GPRMC,163926.000,A,5567.8014,N,03763.2931,E,,,280808,,
$GPGGA,163926.000,5567.8014,N,03763.2931,E,1,12,1.0,164.48,M,0,M,0,0000
$GPGLL,5567.8014,N,03763.2931,E,163926.000,A
$GPRMC,163927.000,A,5567.7873,N,03763.2900,E,,,280808,,
$GPGGA,163927.000,5567.7873,N,03763.2900,E,1,12,1.0,165.38,M,0,M,0,0000
$GPGLL,5567.7873,N,03763.2900,E,163927.000,A
$GPRMC,163929.000,A,5567.7732,N,03763.2873,E,,,280808,,
$GPGGA,163929.000,5567.7732,N,03763.2873,E,1,12,1.0,166.36,M,0,M,0,0000
$GPGLL,5567.7732,N,03763.2873,E,163929.000,A
$GPRMC,163930.000,A,5567.7602,N,03763.2854,E,,,280808,,
$GPGGA,163930.000,5567.7602,N,03763.2854,E,1,12,1.0,167.34,M,0,M,0,0000
$GPGLL,5567.7602,N,03763.2854,E,163930.000,A
$GPRMC,163930.000,A,5567.7492,N,03763.2835,E,,,280808,,
$GPGGA,163930.000,5567.7492,N,03763.2835,E,1,12,1.0,167.90,M,0,M,0,0000
$GPGLL,5567.7492,N,03763.2835,E,163930.000,A
$GPRMC,163931.000,A,5567.7400,N,03763.2820,E,,,280808,,
$GPGGA,163931.000,5567.7400,N,03763.2820,E,1,12,1.0,168.25,M,0,M,0,0000
$GPGLL,5567.7400,N,03763.2820,E,163931.000,A
$GPRMC,163933.000,A,5567.7328,N,03763.2801,E,,,280808,,
$GPGGA,163933.000,5567.7328,N,03763.2801,E,1,12,1.0,168.70,M,0,M,0,0000
$GPGLL,5567.7328,N,03763.2801,E,163933.000,A
$GPRMC,163934.000,A,5567.7282,N,03763.2793,E,,,280808,,
$GPGGA,163934.000,5567.7282,N,03763.2793,E,1,12,1.0,169.19,M,0,M,0,0000
$GPGLL,5567.7282,N,03763.2793,E,163934.000,A
$GPRMC,163934.000,A,5567.7251,N,03763.2793,E,,,280808,,
$GPGGA,163934.000,5567.7251,N,03763.2793,E,1,12,1.0,169.23,M,0,M,0,0000
$GPGLL,5567.7251,N,03763.2793,E,163934.000,A
$GPRMC,163935.000,A,5567.7217,N,03763.2797,E,,,280808,,
$GPGGA,163935.000,5567.7217,N,03763.2797,E,1,12,1.0,169.73,M,0,M,0,0000
$GPGLL,5567.7217,N,03763.2797,E,163935.000,A
$GPRMC,163937.000,A,5567.7171,N,03763.2789,E,,,280808,,
$GPGGA,163937.000,5567.7171,N,03763.2789,E,1,12,1.0,170.04,M,0,M,0,0000
$GPGLL,5567.7171,N,03763.2789,E,163937.000,A
$GPRMC,163937.000,A,5567.7114,N,03763.2766,E,,,280808,,
$GPGGA,163937.000,5567.7114,N,03763.2766,E,1,12,1.0,170.56,M,0,M,0,0000
$GPGLL,5567.7114,N,03763.2766,E,163937.000,A
$GPRMC,163938.000,A,5567.7046,N,03763.2744,E,,,280808,,
$GPGGA,163938.000,5567.7046,N,03763.2744,E,1,12,1.0,170.65,M,0,M,0,0000
$GPGLL,5567.7046,N,03763.2744,E,163938.000,A
$GPRMC,163940.000,A,5567.6965,N,03763.2724,E,,,280808,,
$GPGGA,163940.000,5567.6965,N,03763.2724,E,1,12,1.0,171.05,M,0,M,0,0000
$GPGLL,5567.6965,N,03763.2724,E,163940.000,A
$GPRMC,163941.000,A,5567.6882,N,03763.2709,E,,,280808,,
$GPGGA,163941.000,5567.6882,N,03763.2709,E,1,12,1.0,171.60,M,0,M,0,0000
$GPGLL,5567.6882,N,03763.2709,E,163941.000,A
$GPRMC,163941.000,A,5567.6794,N,03763.2686,E,,,280808,,
$GPGGA,163941.000,5567.6794,N,03763.2686,E,1,12,1.0,171.67,M,0,M,0,0000
$GPGLL,5567.6794,N,03763.2686,E,163941.000,A
$GPRMC,163942.000,A,5567.6702,N,03763.2663,E,,,280808,,
$GPGGA,163942.000,5567.6702,N,03763.2663,E,1,12,1.0,172.03,M,0,M,0,0000
$GPGLL,5567.6702,N,03763.2663,E,163942.000,A
$GPRMC,163944.000,A,5567.6603,N,03763.2656,E,,,280808,,
$GPGGA,163944.000,5567.6603,N,03763.2656,E,1,12,1.0,172.29,M,0,M,0,0000
$GPGLL,5567.6603,N,03763.2656,E,163944.000,A
$GPRMC,163945.000,A,5567.6496,N,03763.2660,E,,,280808,,
$GPGGA,163945.000,5567.6496,N,03763.2660,E,1,12,1.0,172.81,M,0,M,0,0000
$GPGLL,5567.6496,N,03763.2660,E,163945.000,A
$GPRMC,163945.000,A,5567.6386,N,03763.2648,E,,,280808,,
$GPGGA,163945.000,5567.6386,N,03763.2648,E,1,12,1.0,173.48,M,0,M,0,0000
$GPGLL,5567.6386,N,03763.2648,E,163945.000,A
$GPRMC,163946.000,A,5567.6271,N,03763.2618,E,,,280808,,
$GPGGA,163946.000,5567.6271,N,03763.2618,E,1,12,1.0,174.03,M,0,M,0,0000
$GPGLL,5567.6271,N,03763.2618,E,163946.000,A
$GPRMC,163948.000,A,5567.6157,N,03763.2576,E,,,280808,,
$GPGGA,163948.000,5567.6157,N,03763.2576,E,1,12,1.0,174.19,M,0,M,0,0000
$GPGLL,5567.6157,N,03763.2576,E,163948.000,A
$GPRMC,163949.000,A,5567.6038,N,03763.2545,E,,,280808,,
$GPGGA,163949.000,5567.6038,N,03763.2545,E,1,12,1.0,174.82,M,0,M,0,0000
$GPGLL,5567.6038,N,03763.2545,E,163949.000,A
$GPRMC,163949.000,A,5567.5916,N,03763.2515,E,,,280808,,
$GPGGA,163949.000,5567.5916,N,03763.2515,E,1,12,1.0,175.42,M,0,M,0,0000
$GPGLL,5567.5916,N,03763.2515,E,163949.000,A
$GPRMC,163950.000,A,5567.5791,N,03763.2488,E,,,280808,,
$GPGGA,163950.000,5567.5791,N,03763.2488,E,1,12,1.0,176.44,M,0,M,0,0000
$GPGLL,5567.5791,N,03763.2488,E,163950.000,A
$GPRMC,163952.000,A,5567.5665,N,03763.2461,E,,,280808,,
$GPGGA,163952.000,5567.5665,N,03763.2461,E,1,12,1.0,176.42,M,0,M,0,0000
$GPGLL,5567.5665,N,03763.2461,E,163952.000,A
$GPRMC,163953.000,A,5567.5535,N,03763.2438,E,,,280808,,
$GPGGA,163953.000,5567.5535,N,03763.2438,E,1,12,1.0,176.92,M,0,M,0,0000
$GPGLL,5567.5535,N,03763.2438,E,163953.000,A
$GPRMC,163953.000,A,5567.5405,N,03763.2419,E,,,280808,,
$GPGGA,163953.000,5567.5405,N,03763.2419,E,1,12,1.0,177.57,M,0,M,0,0000
$GPGLL,5567.5405,N,03763.2419,E,163953.000,A
$GPRMC,163954.000,A,5567.5283,N,03763.2396,E,,,280808,,
$GPGGA,163954.000,5567.5283,N,03763.2396,E,1,12,1.0,177.95,M,0,M,0,0000
$GPGLL,5567.5283,N,03763.2396,E,163954.000,A
$GPRMC,163956.000,A,5567.5169,N,03763.2374,E,,,280808,,
$GPGGA,163956.000,5567.5169,N,03763.2374,E,1,12,1.0,178.57,M,0,M,0,0000
$GPGLL,5567.5169,N,03763.2374,E,163956.000,A
$GPRMC,163957.000,A,5567.5077,N,03763.2355,E,,,280808,,
$GPGGA,163957.000,5567.5077,N,03763.2355,E,1,12,1.0,178.52,M,0,M,0,0000
$GPGLL,5567.5077,N,03763.2355,E,163957.000,A
$GPRMC,163957.000,A,5567.5001,N,03763.2332,E,,,280808,,
$GPGGA,163957.000,5567.5001,N,03763.2332,E,1,12,1.0,178.21,M,0,M,0,0000
$GPGLL,5567.5001,N,03763.2332,E,163957.000,A
$GPRMC,163958.000,A,5567.4925,N,03763.2316,E,,,280808,,
$GPGGA,163958.000,5567.4925,N,03763.2316,E,1,12,1.0,178.49,M,0,M,0,0000
$GPGLL,5567.4925,N,03763.2316,E,163958.000,A
$GPRMC,164000.000,A,5567.4848,N,03763.2301,E,,,280808,,
$GPGGA,164000.000,5567.4848,N,03763.2301,E,1,12,1.0,178.65,M,0,M,0,0000
$GPGLL,5567.4848,N,03763.2301,E,164000.000,A
$GPRMC,164001.000,A,5567.4764,N,03763.2278,E,,,280808,,
$GPGGA,164001.000,5567.4764,N,03763.2278,E,1,12,1.0,177.74,M,0,M,0,0000
$GPGLL,5567.4764,N,03763.2278,E,164001.000,A
$GPRMC,164001.000,A,5567.4677,N,03763.2259,E,,,280808,,
$GPGGA,164001.000,5567.4677,N,03763.2259,E,1,12,1.0,176.82,M,0,M,0,0000
$GPGLL,5567.4677,N,03763.2259,E,164001.000,A
$GPRMC,164002.000,A,5567.4597,N,03763.2244,E,,,280808,,
$GPGGA,164002.000,5567.4597,N,03763.2244,E,1,12,1.0,177.59,M,0,M,0,0000
$GPGLL,5567.4597,N,03763.2244,E,164002.000,A
$GPRMC,164004.000,A,5567.4520,N,03763.2229,E,,,280808,,
$GPGGA,164004.000,5567.4520,N,03763.2229,E,1,12,1.0,177.55,M,0,M,0,0000
$GPGLL,5567.4520,N,03763.2229,E,164004.000,A
$GPRMC,164004.000,A,5567.4455,N,03763.2210,E,,,280808,,
$GPGGA,164004.000,5567.4455,N,03763.2210,E,1,12,1.0,177.92,M,0,M,0,0000
$GPGLL,5567.4455,N,03763.2210,E,164004.000,A
$GPRMC,164005.000,A,5567.4398,N,03763.2183,E,,,280808,,
$GPGGA,164005.000,5567.4398,N,03763.2183,E,1,12,1.0,177.69,M,0,M,0,0000
$GPGLL,5567.4398,N,03763.2183,E,164005.000,A
$GPRMC,164007.000,A,5567.4345,N,03763.2156,E,,,280808,,
$GPGGA,164007.000,5567.4345,N,03763.2156,E,1,12,1.0,177.58,M,0,M,0,0000
$GPGLL,5567.4345,N,03763.2156,E,164007.000,A
$GPRMC,164008.000,A,5567.4291,N,03763.2133,E,,,280808,,
$GPGGA,164008.000,5567.4291,N,03763.2133,E,1,12,1.0,177.89,M,0,M,0,0000
$GPGLL,5567.4291,N,03763.2133,E,164008.000,A
$GPRMC,164008.000,A,5567.4246,N,03763.2118,E,,,280808,,
$GPGGA,164008.000,5567.4246,N,03763.2118,E,1,12,1.0,177.66,M,0,M,0,0000
$GPGLL,5567.4246,N,03763.2118,E,164008.000,A
$GPRMC,164009.000,A,5567.4211,N,03763.2103,E,,,280808,,
$GPGGA,164009.000,5567.4211,N,03763.2103,E,1,12,1.0,177.35,M,0,M,0,0000
$GPGLL,5567.4211,N,03763.2103,E,164009.000,A
$GPRMC,164011.000,A,5567.4192,N,03763.2099,E,,,280808,,
$GPGGA,164011.000,5567.4192,N,03763.2099,E,1,12,1.0,177.68,M,0,M,0,0000
$GPGLL,5567.4192,N,03763.2099,E,164011.000,A
$GPRMC,164012.000,A,5567.4181,N,03763.2099,E,,,280808,,
$GPGGA,164012.000,5567.4181,N,03763.2099,E,1,12,1.0,176.97,M,0,M,0,0000
$GPGLL,5567.4181,N,03763.2099,E,164012.000,A
$GPRMC,164012.000,A,5567.4173,N,03763.2103,E,,,280808,,
$GPGGA,164012.000,5567.4173,N,03763.2103,E,1,12,1.0,176.85,M,0,M,0,0000
$GPGLL,5567.4173,N,03763.2103,E,164012.000,A
$GPRMC,164013.000,A,5567.4165,N,03763.2103,E,,,280808,,
$GPGGA,164013.000,5567.4165,N,03763.2103,E,1,12,1.0,176.77,M,0,M,0,0000
$GPGLL,5567.4165,N,03763.2103,E,164013.000,A
$GPRMC,164020.000,A,5567.4162,N,03763.2103,E,,,280808,,
$GPGGA,164020.000,5567.4162,N,03763.2103,E,1,12,1.0,177.22,M,0,M,0,0000
$GPGLL,5567.4162,N,03763.2103,E,164020.000,A
$GPRMC,164020.000,A,5567.4154,N,03763.2095,E,,,280808,,
$GPGGA,164020.000,5567.4154,N,03763.2095,E,1,12,1.0,177.46,M,0,M,0,0000
$GPGLL,5567.4154,N,03763.2095,E,164020.000,A
$GPRMC,164021.000,A,5567.4135,N,03763.2095,E,,,280808,,
$GPGGA,164021.000,5567.4135,N,03763.2095,E,1,12,1.0,177.35,M,0,M,0,0000
$GPGLL,5567.4135,N,03763.2095,E,164021.000,A
$GPRMC,164023.000,A,5567.4108,N,03763.2106,E,,,280808,,
$GPGGA,164023.000,5567.4108,N,03763.2106,E,1,12,1.0,176.94,M,0,M,0,0000
$GPGLL,5567.4108,N,03763.2106,E,164023.000,A
$GPRMC,164024.000,A,5567.4074,N,03763.2133,E,,,280808,,
$GPGGA,164024.000,5567.4074,N,03763.2133,E,1,12,1.0,176.78,M,0,M,0,0000
$GPGLL,5567.4074,N,03763.2133,E,164024.000,A
$GPRMC,164024.000,A,5567.4043,N,03763.2179,E,,,280808,,
$GPGGA,164024.000,5567.4043,N,03763.2179,E,1,12,1.0,176.81,M,0,M,0,0000
$GPGLL,5567.4043,N,03763.2179,E,164024.000,A
$GPRMC,164025.000,A,5567.4017,N,03763.2225,E,,,280808,,
$GPGGA,164025.000,5567.4017,N,03763.2225,E,1,12,1.0,176.39,M,0,M,0,0000
$GPGLL,5567.4017,N,03763.2225,E,164025.000,A
$GPRMC,164027.000,A,5567.3998,N,03763.2282,E,,,280808,,
$GPGGA,164027.000,5567.3998,N,03763.2282,E,1,12,1.0,176.25,M,0,M,0,0000
$GPGLL,5567.3998,N,03763.2282,E,164027.000,A
$GPRMC,164028.000,A,5567.3979,N,03763.2347,E,,,280808,,
$GPGGA,164028.000,5567.3979,N,03763.2347,E,1,12,1.0,176.50,M,0,M,0,0000
$GPGLL,5567.3979,N,03763.2347,E,164028.000,A
$GPRMC,164028.000,A,5567.3952,N,03763.2416,E,,,280808,,
$GPGGA,164028.000,5567.3952,N,03763.2416,E,1,12,1.0,176.43,M,0,M,0,0000
$GPGLL,5567.3952,N,03763.2416,E,164028.000,A
$GPRMC,164029.000,A,5567.3921,N,03763.2496,E,,,280808,,
$GPGGA,164029.000,5567.3921,N,03763.2496,E,1,12,1.0,176.52,M,0,M,0,0000
$GPGLL,5567.3921,N,03763.2496,E,164029.000,A
$GPRMC,164031.000,A,5567.3891,N,03763.2591,E,,,280808,,
$GPGGA,164031.000,5567.3891,N,03763.2591,E,1,12,1.0,176.48,M,0,M,0,0000
$GPGLL,5567.3891,N,03763.2591,E,164031.000,A
$GPRMC,164031.000,A,5567.3860,N,03763.2683,E,,,280808,,
$GPGGA,164031.000,5567.3860,N,03763.2683,E,1,12,1.0,176.91,M,0,M,0,0000
$GPGLL,5567.3860,N,03763.2683,E,164031.000,A
$GPRMC,164032.000,A,5567.3830,N,03763.2763,E,,,280808,,
$GPGGA,164032.000,5567.3830,N,03763.2763,E,1,12,1.0,177.74,M,0,M,0,0000
$GPGLL,5567.3830,N,03763.2763,E,164032.000,A
$GPRMC,164034.000,A,5567.3799,N,03763.2850,E,,,280808,,
$GPGGA,164034.000,5567.3799,N,03763.2850,E,1,12,1.0,177.44,M,0,M,0,0000
$GPGLL,5567.3799,N,03763.2850,E,164034.000,A
$GPRMC,164035.000,A,5567.3769,N,03763.2934,E,,,280808,,
$GPGGA,164035.000,5567.3769,N,03763.2934,E,1,12,1.0,177.10,M,0,M,0,0000
$GPGLL,5567.3769,N,03763.2934,E,164035.000,A
$GPRMC,164035.000,A,5567.3738,N,03763.3014,E,,,280808,,
$GPGGA,164035.000,5567.3738,N,03763.3014,E,1,12,1.0,177.42,M,0,M,0,0000
$GPGLL,5567.3738,N,03763.3014,E,164035.000,A
$GPRMC,164036.000,A,5567.3704,N,03763.3091,E,,,280808,,
$GPGGA,164036.000,5567.3704,N,03763.3091,E,1,12,1.0,177.28,M,0,M,0,0000
$GPGLL,5567.3704,N,03763.3091,E,164036.000,A
$GPRMC,164038.000,A,5567.3669,N,03763.3167,E,,,280808,,
$GPGGA,164038.000,5567.3669,N,03763.3167,E,1,12,1.0,177.20,M,0,M,0,0000
$GPGLL,5567.3669,N,03763.3167,E,164038.000,A
$GPRMC,164039.000,A,5567.3639,N,03763.3259,E,,,280808,,
$GPGGA,164039.000,5567.3639,N,03763.3259,E,1,12,1.0,177.52,M,0,M,0,0000
$GPGLL,5567.3639,N,03763.3259,E,164039.000,A
$GPRMC,164039.000,A,5567.3601,N,03763.3358,E,,,280808,,
$GPGGA,164039.000,5567.3601,N,03763.3358,E,1,12,1.0,177.61,M,0,M,0,0000
$GPGLL,5567.3601,N,03763.3358,E,164039.000,A
$GPRMC,164040.000,A,5567.3555,N,03763.3461,E,,,280808,,
$GPGGA,164040.000,5567.3555,N,03763.3461,E,1,12,1.0,177.31,M,0,M,0,0000
$GPGLL,5567.3555,N,03763.3461,E,164040.000,A
$GPRMC,164042.000,A,5567.3509,N,03763.3571,E,,,280808,,
$GPGGA,164042.000,5567.3509,N,03763.3571,E,1,12,1.0,177.53,M,0,M,0,0000
$GPGLL,5567.3509,N,03763.3571,E,164042.000,A
$GPRMC,164043.000,A,5567.3464,N,03763.3690,E,,,280808,,
$GPGGA,164043.000,5567.3464,N,03763.3690,E,1,12,1.0,177.36,M,0,M,0,0000
$GPGLL,5567.3464,N,03763.3690,E,164043.000,A
$GPRMC,164043.000,A,5567.3414,N,03763.3804,E,,,280808,,
$GPGGA,164043.000,5567.3414,N,03763.3804,E,1,12,1.0,177.55,M,0,M,0,0000
$GPGLL,5567.3414,N,03763.3804,E,164043.000,A
$GPRMC,164044.000,A,5567.3368,N,03763.3915,E,,,280808,,
$GPGGA,164044.000,5567.3368,N,03763.3915,E,1,12,1.0,177.58,M,0,M,0,0000
$GPGLL,5567.3368,N,03763.3915,E,164044.000,A
$GPRMC,164046.000,A,5567.3319,N,03763.4018,E,,,280808,,
$GPGGA,164046.000,5567.3319,N,03763.4018,E,1,12,1.0,177.55,M,0,M,0,0000
$GPGLL,5567.3319,N,03763.4018,E,164046.000,A
$GPRMC,164047.000,A,5567.3273,N,03763.4109,E,,,280808,,
$GPGGA,164047.000,5567.3273,N,03763.4109,E,1,12,1.0,177.86,M,0,M,0,0000
$GPGLL,5567.3273,N,03763.4109,E,164047.000,A
$GPRMC,164047.000,A,5567.3235,N,03763.4178,E,,,280808,,
$GPGGA,164047.000,5567.3235,N,03763.4178,E,1,12,1.0,177.62,M,0,M,0,0000
$GPGLL,5567.3235,N,03763.4178,E,164047.000,A
$GPRMC,164048.000,A,5567.3200,N,03763.4224,E,,,280808,,
$GPGGA,164048.000,5567.3200,N,03763.4224,E,1,12,1.0,177.62,M,0,M,0,0000
$GPGLL,5567.3200,N,03763.4224,E,164048.000,A
$GPRMC,164050.000,A,5567.3166,N,03763.4254,E,,,280808,,
$GPGGA,164050.000,5567.3166,N,03763.4254,E,1,12,1.0,177.57,M,0,M,0,0000
$GPGLL,5567.3166,N,03763.4254,E,164050.000,A
$GPRMC,164051.000,A,5567.3128,N,03763.4266,E,,,280808,,
$GPGGA,164051.000,5567.3128,N,03763.4266,E,1,12,1.0,178.24,M,0,M,0,0000
$GPGLL,5567.3128,N,03763.4266,E,164051.000,A
$GPRMC,164051.000,A,5567.3086,N,03763.4254,E,,,280808,,
$GPGGA,164051.000,5567.3086,N,03763.4254,E,1,12,1.0,178.23,M,0,M,0,0000
$GPGLL,5567.3086,N,03763.4254,E,164051.000,A
$GPRMC,164052.000,A,5567.3052,N,03763.4205,E,,,280808,,
$GPGGA,164052.000,5567.3052,N,03763.4205,E,1,12,1.0,178.53,M,0,M,0,0000
$GPGLL,5567.3052,N,03763.4205,E,164052.000,A
$GPRMC,164054.000,A,5567.3010,N,03763.4140,E,,,280808,,
$GPGGA,164054.000,5567.3010,N,03763.4140,E,1,12,1.0,178.36,M,0,M,0,0000
$GPGLL,5567.3010,N,03763.4140,E,164054.000,A
$GPRMC,164055.000,A,5567.2964,N,03763.4071,E,,,280808,,
$GPGGA,164055.000,5567.2964,N,03763.4071,E,1,12,1.0,178.36,M,0,M,0,0000
$GPGLL,5567.2964,N,03763.4071,E,164055.000,A
$GPRMC,164055.000,A,5567.2910,N,03763.3995,E,,,280808,,
$GPGGA,164055.000,5567.2910,N,03763.3995,E,1,12,1.0,178.56,M,0,M,0,0000
$GPGLL,5567.2910,N,03763.3995,E,164055.000,A
$GPRMC,164056.000,A,5567.2853,N,03763.3915,E,,,280808,,
$GPGGA,164056.000,5567.2853,N,03763.3915,E,1,12,1.0,178.57,M,0,M,0,0000
$GPGLL,5567.2853,N,03763.3915,E,164056.000,A
$GPRMC,164058.000,A,5567.2792,N,03763.3835,E,,,280808,,
$GPGGA,164058.000,5567.2792,N,03763.3835,E,1,12,1.0,178.49,M,0,M,0,0000
$GPGLL,5567.2792,N,03763.3835,E,164058.000,A
$GPRMC,164058.000,A,5567.2724,N,03763.3739,E,,,280808,,
$GPGGA,164058.000,5567.2724,N,03763.3739,E,1,12,1.0,178.52,M,0,M,0,0000
$GPGLL,5567.2724,N,03763.3739,E,164058.000,A
$GPRMC,164059.000,A,5567.2647,N,03763.3644,E,,,280808,,
$GPGGA,164059.000,5567.2647,N,03763.3644,E,1,12,1.0,178.46,M,0,M,0,0000
$GPGLL,5567.2647,N,03763.3644,E,164059.000,A
$GPRMC,164101.000,A,5567.2575,N,03763.3541,E,,,280808,,
$GPGGA,164101.000,5567.2575,N,03763.3541,E,1,12,1.0,178.39,M,0,M,0,0000
$GPGLL,5567.2575,N,03763.3541,E,164101.000,A
$GPRMC,164102.000,A,5567.2502,N,03763.3438,E,,,280808,,
$GPGGA,164102.000,5567.2502,N,03763.3438,E,1,12,1.0,178.14,M,0,M,0,0000
$GPGLL,5567.2502,N,03763.3438,E,164102.000,A
$GPRMC,164102.000,A,5567.2434,N,03763.3342,E,,,280808,,
$GPGGA,164102.000,5567.2434,N,03763.3342,E,1,12,1.0,178.46,M,0,M,0,0000
$GPGLL,5567.2434,N,03763.3342,E,164102.000,A
$GPRMC,164103.000,A,5567.2373,N,03763.3251,E,,,280808,,
$GPGGA,164103.000,5567.2373,N,03763.3251,E,1,12,1.0,178.60,M,0,M,0,0000
$GPGLL,5567.2373,N,03763.3251,E,164103.000,A
$GPRMC,164105.000,A,5567.2323,N,03763.3178,E,,,280808,,
$GPGGA,164105.000,5567.2323,N,03763.3178,E,1,12,1.0,178.50,M,0,M,0,0000
$GPGLL,5567.2323,N,03763.3178,E,164105.000,A
$GPRMC,164106.000,A,5567.2292,N,03763.3136,E,,,280808,,
$GPGGA,164106.000,5567.2292,N,03763.3136,E,1,12,1.0,178.78,M,0,M,0,0000
$GPGLL,5567.2292,N,03763.3136,E,164106.000,A
$GPRMC,164106.000,A,5567.2270,N,03763.3106,E,,,280808,,
$GPGGA,164106.000,5567.2270,N,03763.3106,E,1,12,1.0,179.02,M,0,M,0,0000
$GPGLL,5567.2270,N,03763.3106,E,164106.000,A
$GPRMC,164107.000,A,5567.2250,N,03763.3079,E,,,280808,,
$GPGGA,164107.000,5567.2250,N,03763.3079,E,1,12,1.0,178.70,M,0,M,0,0000
$GPGLL,5567.2250,N,03763.3079,E,164107.000,A
$GPRMC,164109.000,A,5567.2239,N,03763.3056,E,,,280808,,
$GPGGA,164109.000,5567.2239,N,03763.3056,E,1,12,1.0,178.59,M,0,M,0,0000
$GPGLL,5567.2239,N,03763.3056,E,164109.000,A
$GPRMC,164110.000,A,5567.2231,N,03763.3037,E,,,280808,,
$GPGGA,164110.000,5567.2231,N,03763.3037,E,1,12,1.0,178.94,M,0,M,0,0000
$GPGLL,5567.2231,N,03763.3037,E,164110.000,A
$GPRMC,164110.000,A,5567.2216,N,03763.3018,E,,,280808,,
$GPGGA,164110.000,5567.2216,N,03763.3018,E,1,12,1.0,179.61,M,0,M,0,0000
$GPGLL,5567.2216,N,03763.3018,E,164110.000,A
$GPRMC,164111.000,A,5567.2193,N,03763.2992,E,,,280808,,
$GPGGA,164111.000,5567.2193,N,03763.2992,E,1,12,1.0,179.98,M,0,M,0,0000
$GPGLL,5567.2193,N,03763.2992,E,164111.000,A
$GPRMC,164113.000,A,5567.2174,N,03763.2953,E,,,280808,,
$GPGGA,164113.000,5567.2174,N,03763.2953,E,1,12,1.0,180.17,M,0,M,0,0000
$GPGLL,5567.2174,N,03763.2953,E,164113.000,A
$GPRMC,164114.000,A,5567.2147,N,03763.2915,E,,,280808,,
$GPGGA,164114.000,5567.2147,N,03763.2915,E,1,12,1.0,180.12,M,0,M,0,0000
$GPGLL,5567.2147,N,03763.2915,E,164114.000,A
$GPRMC,164114.000,A,5567.2125,N,03763.2877,E,,,280808,,
$GPGGA,164114.000,5567.2125,N,03763.2877,E,1,12,1.0,179.57,M,0,M,0,0000
$GPGLL,5567.2125,N,03763.2877,E,164114.000,A
$GPRMC,164115.000,A,5567.2102,N,03763.2847,E,,,280808,,
$GPGGA,164115.000,5567.2102,N,03763.2847,E,1,12,1.0,179.10,M,0,M,0,0000
$GPGLL,5567.2102,N,03763.2847,E,164115.000,A
$GPRMC,164117.000,A,5567.2075,N,03763.2824,E,,,280808,,
$GPGGA,164117.000,5567.2075,N,03763.2824,E,1,12,1.0,179.48,M,0,M,0,0000
$GPGLL,5567.2075,N,03763.2824,E,164117.000,A
$GPRMC,164118.000,A,5567.2052,N,03763.2801,E,,,280808,,
$GPGGA,164118.000,5567.2052,N,03763.2801,E,1,12,1.0,179.71,M,0,M,0,0000
$GPGLL,5567.2052,N,03763.2801,E,164118.000,A
$GPRMC,164118.000,A,5567.2037,N,03763.2778,E,,,280808,,
$GPGGA,164118.000,5567.2037,N,03763.2778,E,1,12,1.0,179.71,M,0,M,0,0000
$GPGLL,5567.2037,N,03763.2778,E,164118.000,A
$GPRMC,164119.000,A,5567.2025,N,03763.2763,E,,,280808,,
$GPGGA,164119.000,5567.2025,N,03763.2763,E,1,12,1.0,179.82,M,0,M,0,0000
$GPGLL,5567.2025,N,03763.2763,E,164119.000,A
$GPRMC,164121.000,A,5567.2014,N,03763.2759,E,,,280808,,
$GPGGA,164121.000,5567.2014,N,03763.2759,E,1,12,1.0,180.13,M,0,M,0,0000
$GPGLL,5567.2014,N,03763.2759,E,164121.000,A
$GPRMC,164122.000,A,5567.2010,N,03763.2759,E,,,280808,,
$GPGGA,164122.000,5567.2010,N,03763.2759,E,1,12,1.0,180.38,M,0,M,0,0000
$GPGLL,5567.2010,N,03763.2759,E,164122.000,A
$GPRMC,164122.000,A,5567.1999,N,03763.2740,E,,,280808,,
$GPGGA,164122.000,5567.1999,N,03763.2740,E,1,12,1.0,180.20,M,0,M,0,0000
$GPGLL,5567.1999,N,03763.2740,E,164122.000,A
$GPRMC,164123.000,A,5567.1980,N,03763.2721,E,,,280808,,
$GPGGA,164123.000,5567.1980,N,03763.2721,E,1,12,1.0,179.61,M,0,M,0,0000
$GPGLL,5567.1980,N,03763.2721,E,164123.000,A
$GPRMC,164125.000,A,5567.1968,N,03763.2698,E,,,280808,,
$GPGGA,164125.000,5567.1968,N,03763.2698,E,1,12,1.0,179.52,M,0,M,0,0000
$GPGLL,5567.1968,N,03763.2698,E,164125.000,A
$GPRMC,164125.000,A,5567.1957,N,03763.2679,E,,,280808,,
$GPGGA,164125.000,5567.1957,N,03763.2679,E,1,12,1.0,179.31,M,0,M,0,0000
$GPGLL,5567.1957,N,03763.2679,E,164125.000,A
$GPRMC,164126.000,A,5567.1941,N,03763.2656,E,,,280808,,
$GPGGA,164126.000,5567.1941,N,03763.2656,E,1,12,1.0,178.84,M,0,M,0,0000
$GPGLL,5567.1941,N,03763.2656,E,164126.000,A
$GPRMC,164128.000,A,5567.1922,N,03763.2633,E,,,280808,,
$GPGGA,164128.000,5567.1922,N,03763.2633,E,1,12,1.0,178.75,M,0,M,0,0000
$GPGLL,5567.1922,N,03763.2633,E,164128.000,A
$GPRMC,164129.000,A,5567.1903,N,03763.2606,E,,,280808,,
$GPGGA,164129.000,5567.1903,N,03763.2606,E,1,12,1.0,178.33,M,0,M,0,0000
$GPGLL,5567.1903,N,03763.2606,E,164129.000,A
$GPRMC,164129.000,A,5567.1888,N,03763.2580,E,,,280808,,
$GPGGA,164129.000,5567.1888,N,03763.2580,E,1,12,1.0,178.51,M,0,M,0,0000
$GPGLL,5567.1888,N,03763.2580,E,164129.000,A
$GPRMC,164130.000,A,5567.1873,N,03763.2553,E,,,280808,,
$GPGGA,164130.000,5567.1873,N,03763.2553,E,1,12,1.0,178.17,M,0,M,0,0000
$GPGLL,5567.1873,N,03763.2553,E,164130.000,A
$GPRMC,164132.000,A,5567.1858,N,03763.2541,E,,,280808,,
$GPGGA,164132.000,5567.1858,N,03763.2541,E,1,12,1.0,178.09,M,0,M,0,0000
$GPGLL,5567.1858,N,03763.2541,E,164132.000,A
$GPRMC,164133.000,A,5567.1846,N,03763.2526,E,,,280808,,
$GPGGA,164133.000,5567.1846,N,03763.2526,E,1,12,1.0,177.71,M,0,M,0,0000
$GPGLL,5567.1846,N,03763.2526,E,164133.000,A
$GPRMC,164133.000,A,5567.1842,N,03763.2511,E,,,280808,,
$GPGGA,164133.000,5567.1842,N,03763.2511,E,1,12,1.0,177.84,M,0,M,0,0000
$GPGLL,5567.1842,N,03763.2511,E,164133.000,A
$GPRMC,164137.000,A,5567.1835,N,03763.2507,E,,,280808,,
$GPGGA,164137.000,5567.1835,N,03763.2507,E,1,12,1.0,178.29,M,0,M,0,0000
$GPGLL,5567.1835,N,03763.2507,E,164137.000,A
$GPRMC,164138.000,A,5567.1823,N,03763.2484,E,,,280808,,
$GPGGA,164138.000,5567.1823,N,03763.2484,E,1,12,1.0,178.56,M,0,M,0,0000
$GPGLL,5567.1823,N,03763.2484,E,164138.000,A
$GPRMC,164140.000,A,5567.1808,N,03763.2465,E,,,280808,,
$GPGGA,164140.000,5567.1808,N,03763.2465,E,1,12,1.0,178.76,M,0,M,0,0000
$GPGLL,5567.1808,N,03763.2465,E,164140.000,A
$GPRMC,164141.000,A,5567.1793,N,03763.2435,E,,,280808,,
$GPGGA,164141.000,5567.1793,N,03763.2435,E,1,12,1.0,178.37,M,0,M,0,0000
$GPGLL,5567.1793,N,03763.2435,E,164141.000,A
$GPRMC,164141.000,A,5567.1777,N,03763.2412,E,,,280808,,
$GPGGA,164141.000,5567.1777,N,03763.2412,E,1,12,1.0,178.17,M,0,M,0,0000
$GPGLL,5567.1777,N,03763.2412,E,164141.000,A
$GPRMC,164142.000,A,5567.1762,N,03763.2400,E,,,280808,,
$GPGGA,164142.000,5567.1762,N,03763.2400,E,1,12,1.0,178.18,M,0,M,0,0000
